city,lat,lng,country,iso2,admin_name,capital,population,population_proper
Tirana,41.3289,19.8178,Albania,AL,Tiranë,primary,418495,418495
Vlorë,40.4667,19.4833,Albania,AL,Vlorë,admin,130827,130827
Kamëz,41.3833,19.7667,Albania,AL,Tiranë,,126777,126777
Fier,40.7250,19.5572,Albania,AL,Fier,admin,120655,120655
Durrës,41.3111,19.4392,Albania,AL,Durrës,admin,113249,113249
Shkodër,42.0681,19.5119,Albania,AL,Shkodër,admin,112276,112276
Elbasan,41.1111,20.0806,Albania,AL,Elbasan,admin,78703,78703
Korçë,40.6167,20.7667,Albania,AL,Korçë,admin,51152,51152
Sarandë,39.8750,20.0100,Albania,AL,Vlorë,,41000,41000
Berat,40.7000,19.9500,Albania,AL,Berat,admin,36496,36496
Lushnjë,40.9333,19.7000,Albania,AL,Fier,,31105,31105
Kavajë,41.1842,19.5619,Albania,AL,Tiranë,,29354,29354
Gjirokastër,40.0667,20.1333,Albania,AL,Gjirokastër,admin,23437,23437
Pogradec,40.9000,20.6500,Albania,AL,Korçë,,20848,20848
Fushë-Krujë,41.4833,19.7167,Albania,AL,Durrës,,18477,18477
Laç,41.6353,19.7131,Albania,AL,Lezhë,,17086,17086
Kukës,42.0833,20.4167,Albania,AL,Kukës,admin,16719,16719
Sukth,41.3833,19.5333,Albania,AL,Durrës,,15966,15966
Buçimas,40.8917,20.6806,Albania,AL,Korçë,,15687,15687
Lezhë,41.7819,19.6444,Albania,AL,Lezhë,admin,15510,15510
Patos,40.6833,19.6167,Albania,AL,Fier,,15397,15397
Peshkopi,41.6833,20.4281,Albania,AL,Dibër,admin,13251,13251
Librazhd-Qendër,41.1969,20.3356,Albania,AL,Elbasan,,12691,12691
Kuçovë,40.8039,19.9144,Albania,AL,Berat,,12654,12654
Krujë,41.5000,19.8000,Albania,AL,Durrës,,11721,11721
Burrel,41.6083,20.0111,Albania,AL,Dibër,,10862,10862
Perondi,40.7833,19.9333,Albania,AL,Berat,,9005,9005
Libonik,40.7500,20.7167,Albania,AL,Korçë,,8922,8922
Rrëshen,41.7667,19.8833,Albania,AL,Lezhë,,8803,8803
Belsh,40.9833,19.8833,Albania,AL,Elbasan,,8781,8781
Divjakë,40.9944,19.5306,Albania,AL,Fier,,8445,8445
Gramsh,40.8667,20.1833,Albania,AL,Elbasan,,8440,8440
Mamurras,41.5833,19.7000,Albania,AL,Lezhë,,8282,8282
Bulqizë,41.4833,20.2167,Albania,AL,Dibër,,8177,8177
Vau i Dejës,42.0000,19.6333,Albania,AL,Shkodër,,8117,8117
Shëngjin,41.8136,19.5939,Albania,AL,Lezhë,,8091,8091
Ballsh,40.6008,19.7364,Albania,AL,Fier,,7657,7657
Shijak,41.3456,19.5672,Albania,AL,Durrës,,7568,7568
Bilisht,40.6275,20.9900,Albania,AL,Korçë,,7114,7114
Rrogozhinë,41.0761,19.6667,Albania,AL,Tiranë,,7049,7049
Librazhd,41.1833,20.3167,Albania,AL,Elbasan,,6937,6937
Cërrik,41.0333,19.9833,Albania,AL,Elbasan,,6695,6695
Roskovec,40.7333,19.7000,Albania,AL,Fier,,6657,6657
Manzë,41.4333,19.5833,Albania,AL,Durrës,,6652,6652
Peqin,41.0458,19.7500,Albania,AL,Elbasan,,6353,6353
Krumë,42.2000,20.4167,Albania,AL,Kukës,,6006,6006
Përmet,40.2333,20.3500,Albania,AL,Gjirokastër,,5945,5945
Prrenjas,41.0667,20.5500,Albania,AL,Elbasan,,5847,5847
Delvinë,39.9500,20.1000,Albania,AL,Vlorë,,5754,5754
Orikum,40.3333,19.4667,Albania,AL,Vlorë,,5503,5503
Bajram Curri,42.3581,20.0758,Albania,AL,Kukës,,5340,5340
Vorë,41.3939,19.6544,Albania,AL,Tiranë,,4973,4973
Këlcyrë,40.3130,20.1920,Albania,AL,Gjirokastër,,4900,4900
Ura Vajgurore,40.7667,19.8833,Albania,AL,Berat,,4893,4893
Himarë,40.1167,19.7333,Albania,AL,Vlorë,,4596,4596
Rubik,41.7667,19.7833,Albania,AL,Lezhë,,4454,4454
Tepelenë,40.2967,20.0189,Albania,AL,Gjirokastër,,4342,4342
Poliçan,40.6122,20.0981,Albania,AL,Berat,,4318,4318
Çorovodë,40.5000,20.2167,Albania,AL,Berat,,4051,4051
Ersekë,40.3333,20.6833,Albania,AL,Korçë,,3746,3746
Maliq,40.7083,20.7000,Albania,AL,Korçë,,3735,3735
Koplik,42.2136,19.4364,Albania,AL,Shkodër,,3734,3734
Pukë,42.0500,19.9000,Albania,AL,Shkodër,,3607,3607
Lazarat,40.0500,20.1500,Albania,AL,Gjirokastër,,3160,3160
Memaliaj,40.3500,19.9833,Albania,AL,Gjirokastër,,2646,2646
Velçan,40.9500,20.4667,Albania,AL,Korçë,,2548,2548
Banaj,40.8247,19.8392,Albania,AL,Berat,,2500,2500
Fushë-Arrëz,42.0622,20.0167,Albania,AL,Shkodër,,2438,2438
Krrabë,41.2167,19.9667,Albania,AL,Tiranë,,2343,2343
Selenicë,40.5333,19.6333,Albania,AL,Vlorë,,2235,2235
Voskopojë,40.6333,20.5903,Albania,AL,Korçë,,2218,2218
Bitinckë,40.6478,20.9836,Albania,AL,Korçë,,2000,2000
Drenovë,40.5833,20.7833,Albania,AL,Korçë,,2000,2000
Libohovë,40.0333,20.2667,Albania,AL,Gjirokastër,,1992,1992
Reps,41.8661,20.0258,Albania,AL,Lezhë,,1899,1899
Gjinkar,40.2000,20.4000,Albania,AL,Gjirokastër,,1622,1622
Krastë,41.4233,20.2036,Albania,AL,Dibër,,1540,1540
Leskovik,40.1500,20.6000,Albania,AL,Korçë,,1525,1525
Kurbnesh,41.7800,20.0800,Albania,AL,Lezhë,,1429,1429
Konispol,39.6667,20.1833,Albania,AL,Vlorë,,1349,1349
Finiq,39.9000,20.0500,Albania,AL,Vlorë,,1333,1333
Ulëz,41.6833,19.8944,Albania,AL,Dibër,,1229,1229
Boboshticë,40.5542,20.7644,Albania,AL,Korçë,,1200,1200
Sinaballaj,41.0689,19.6983,Albania,AL,Tiranë,,1191,1191
Liqenas,40.7869,20.9022,Albania,AL,Korçë,,1120,1120
Aliaj,42.2567,19.4275,Albania,AL,Shkodër,,1033,1033
Burgajet,41.6361,20.0653,Albania,AL,Dibër,,1000,1000
Plasë,40.6833,20.8500,Albania,AL,Korçë,,1000,1000
Rapshë,42.3856,19.4928,Albania,AL,Shkodër,,813,813
Vukpalaj-Bajzë,42.3164,19.4522,Albania,AL,Shkodër,,768,768
Guri i Bardhë,41.4500,20.0700,Albania,AL,Dibër,,700,700
Dobër,42.1872,19.4483,Albania,AL,Shkodër,,693,693
Kastrat,42.3525,19.4892,Albania,AL,Shkodër,,682,682
Bogiç-Palvar,42.2033,19.4531,Albania,AL,Shkodër,,670,670
Stërbeq,42.2078,19.3972,Albania,AL,Shkodër,,636,636
Shtanë,42.0975,20.2681,Albania,AL,Kukës,,585,585
Vernicë,41.4233,20.5272,Albania,AL,Dibër,,548,548
Goricë e Madhe,40.8942,20.9028,Albania,AL,Korçë,,515,515
Dardhë,40.5186,20.8269,Albania,AL,Korçë,,502,502
Vuno,40.1397,19.6936,Albania,AL,Vlorë,,486,486
Gjinovec,41.3869,20.5094,Albania,AL,Dibër,,314,314
