city,lat,lng,country,iso2,admin_name,capital,population,population_proper
Bucharest,44.4325,26.1039,Romania,RO,Bucureşti,primary,1883425,1716983
Cluj-Napoca,46.7667,23.5833,Romania,RO,Cluj,admin,324576,286598
Timişoara,45.7597,21.2300,Romania,RO,Timiş,admin,319279,250849
Braşov,45.6667,25.6167,Romania,RO,Braşov,admin,290743,237589
Iaşi,47.1622,27.5889,Romania,RO,Iaşi,admin,290422,271692
Constanţa,44.1667,28.6333,Romania,RO,Constanţa,admin,283872,263707
Craiova,44.3333,23.8167,Romania,RO,Dolj,admin,269506,234140
Galaţi,45.4233,28.0425,Romania,RO,Galaţi,admin,249432,217851
Ploieşti,44.9411,26.0225,Romania,RO,Prahova,admin,209945,180539
Oradea,47.0722,21.9211,Romania,RO,Bihor,admin,196367,183105
Brăila,45.2692,27.9575,Romania,RO,Brăila,admin,180302,154686
Arad,46.1750,21.3125,Romania,RO,Arad,admin,159074,145078
Piteşti,44.8606,24.8678,Romania,RO,Argeş,admin,155383,141275
Sibiu,45.7928,24.1519,Romania,RO,Sibiu,admin,147245,134308
Bacău,46.5833,26.9167,Romania,RO,Bacău,admin,144307,136102
Târgu-Mureş,46.5456,24.5625,Romania,RO,Mureş,admin,134290,116033
Baia Mare,47.6667,23.5833,Romania,RO,Maramureş,admin,123738,108759
Buzău,45.1531,26.8208,Romania,RO,Buzău,admin,115494,103481
Botoşani,47.7486,26.6694,Romania,RO,Botoşani,admin,106847,89987
Satu Mare,47.7900,22.8900,Romania,RO,Satu Mare,admin,102411,91520
Râmnicu Vâlcea,45.1047,24.3756,Romania,RO,Vâlcea,admin,98776,93151
Drobeta-Turnu Severin,44.6333,22.6500,Romania,RO,Mehedinţi,admin,92617,79865
Suceava,47.6514,26.2556,Romania,RO,Suceava,admin,92121,84308
Piatra Neamţ,46.9275,26.3708,Romania,RO,Neamţ,admin,85055,79679
Reşiţa,45.3008,21.8892,Romania,RO,Caraş-Severin,admin,83324,83324
Târgu Jiu,45.0342,23.2747,Romania,RO,Gorj,admin,82504,73544
Târgovişte,44.9244,25.4572,Romania,RO,Dâmboviţa,admin,79610,66965
Focşani,45.7000,27.1797,Romania,RO,Vrancea,admin,79315,66719
Bistriţa,47.1333,24.5000,Romania,RO,Bistriţa-Năsăud,admin,78877,78877
Tulcea,45.1900,28.8000,Romania,RO,Tulcea,admin,73707,65624
Slatina,44.4297,24.3642,Romania,RO,Olt,admin,70293,63487
Călăraşi,44.2000,27.3333,Romania,RO,Călăraşi,admin,65181,58215
Alba Iulia,46.0669,23.5700,Romania,RO,Alba,admin,64227,64227
Vaslui,46.6383,27.7292,Romania,RO,Vaslui,admin,63035,63035
Giurgiu,43.9008,25.9739,Romania,RO,Giurgiu,admin,61353,54551
Deva,45.8781,22.9144,Romania,RO,Hunedoara,,61123,53113
Hunedoara,45.7697,22.9203,Romania,RO,Hunedoara,admin,60525,50457
Zalău,47.1911,23.0572,Romania,RO,Sălaj,admin,56202,52132
Sfântu-Gheorghe,45.8636,25.7875,Romania,RO,Covasna,admin,56006,50080
Bârlad,46.2167,27.6667,Romania,RO,Vaslui,,55837,52475
Popeşti-Leordeni,44.3800,26.1700,Romania,RO,Ilfov,,53431,53431
Roman,46.9300,26.9300,Romania,RO,Neamţ,,50713,48644
Turda,46.5667,23.7833,Romania,RO,Cluj,,47744,43319
Voluntari,44.4925,26.1914,Romania,RO,Bucureşti,,47366,47366
Media,46.1500,24.3500,Romania,RO,Sibiu,,47204,39505
Slobozia,44.5639,27.3661,Romania,RO,Ialomiţa,admin,45891,41553
Alexandria,43.9686,25.3333,Romania,RO,Teleorman,admin,45434,40390
Miercurea-Ciuc,46.3594,25.8017,Romania,RO,Harghita,admin,42029,42029
Lugoj,45.7056,21.9258,Romania,RO,Timiş,,40361,35450
Bragadiru,44.3708,25.9750,Romania,RO,Ilfov,,40080,40080
Medgidia,44.2503,28.2614,Romania,RO,Constanţa,,39780,34612
Oneşti,46.2586,26.7692,Romania,RO,Bacău,,39172,34005
Sighetu Marmaţiei,47.9286,23.8925,Romania,RO,Maramureş,,37640,32795
Petroşani,45.4122,23.3733,Romania,RO,Hunedoara,,37160,31044
Mangalia,43.8172,28.5828,Romania,RO,Constanţa,,36364,31950
Tecuci,45.8467,27.4278,Romania,RO,Galaţi,,34871,32801
Năvodari,44.3211,28.6133,Romania,RO,Constanţa,,34398,34398
Odorheiu Secuiesc,46.3139,25.3017,Romania,RO,Harghita,,34257,31335
Râmnicu Sărat,45.3800,27.0600,Romania,RO,Buzău,,33843,29774
Paşcani,47.2494,26.7272,Romania,RO,Iaşi,,33745,30766
Dej,47.0872,23.8053,Romania,RO,Cluj,,33497,31475
Reghin,46.7758,24.7083,Romania,RO,Mureş,,33281,29742
Câmpina,45.1300,25.7400,Romania,RO,Prahova,,32935,28993
Pantelimon,44.4500,26.2000,Romania,RO,Ilfov,,32873,32873
Mioveni,44.9569,24.9406,Romania,RO,Argeş,,31998,29317
Câmpulung,45.2678,25.0464,Romania,RO,Argeş,,31767,27574
Caracal,44.1125,24.3472,Romania,RO,Olt,,30954,27403
Săcele,45.6200,25.7097,Romania,RO,Braşov,,30920,30920
Făgăraş,45.8447,24.9742,Romania,RO,Braşov,,30714,26284
Feteşti,44.4150,27.8236,Romania,RO,Ialomiţa,,30217,27462
Sighişoara,46.2169,24.7911,Romania,RO,Mureş,,28102,23927
Borşa,47.6553,24.6631,Romania,RO,Maramureş,,27711,27711
Roşiori de Vede,44.1114,24.9942,Romania,RO,Teleorman,,27416,22294
Curtea de Argeş,45.1392,24.6792,Romania,RO,Argeş,,27359,25977
Sebeş,45.9600,23.5700,Romania,RO,Alba,,27019,26490
Huşi,46.6742,28.0597,Romania,RO,Vaslui,,26266,25045
Fălticeni,47.4597,26.3000,Romania,RO,Suceava,,25723,23902
Olteniţa,44.0867,26.6367,Romania,RO,Călăraşi,,24822,22624
Turnu Măgurele,43.7517,24.8708,Romania,RO,Teleorman,,24772,19597
Caransebeş,45.4214,22.2219,Romania,RO,Caraş-Severin,,24689,21714
Dorohoi,47.9597,26.3997,Romania,RO,Botoşani,,24309,22893
Rădăuţi,47.8425,25.9192,Romania,RO,Suceava,,24292,24292
Vulcan,45.3811,23.2914,Romania,RO,Hunedoara,,24160,19772
Zărneşti,45.5667,25.3333,Romania,RO,Braşov,,23476,21624
Lupeni,45.3603,23.2383,Romania,RO,Hunedoara,,23390,18699
Aiud,46.3122,23.7292,Romania,RO,Alba,,22876,21307
Petrila,45.4500,23.4200,Romania,RO,Hunedoara,,22692,19600
Cisnădie,45.7128,24.1508,Romania,RO,Sibiu,,22277,22277
Câmpia Turzii,46.5486,23.8800,Romania,RO,Cluj,,22223,20590
Buftea,44.5700,25.9500,Romania,RO,Ilfov,,22178,20577
Târnăveni,46.3297,24.2700,Romania,RO,Mureş,,22075,20604
Moineşti,46.4333,26.4833,Romania,RO,Bacău,,21787,19728
Otopeni,44.5500,26.0700,Romania,RO,Ilfov,,21750,21750
Codlea,45.6969,25.4439,Romania,RO,Braşov,,21708,20534
Cugir,45.8436,23.3636,Romania,RO,Alba,,21376,19473
Carei,47.6839,22.4669,Romania,RO,Satu Mare,,21112,18957
Gherla,47.0200,23.9000,Romania,RO,Cluj,,20982,19873
Scobinţi,47.3833,26.9333,Romania,RO,Iaşi,,20700,1818
Blaj,46.1753,23.9144,Romania,RO,Alba,,20630,17816
Floreşti,46.7475,23.4908,Romania,RO,Cluj,,20256,20256
Comăneşti,46.4297,26.4500,Romania,RO,Bacău,,19996,19996
Motru,44.8036,22.9708,Romania,RO,Gorj,,19079,15950
Târgu Neamţ,47.2025,26.3586,Romania,RO,Neamţ,,18695,18015
Moreni,44.9803,25.6444,Romania,RO,Dâmboviţa,,18687,15472
Toflea,46.0637,27.3341,Romania,RO,Galaţi,,18521,5801
Târgu Secuiesc,45.9969,26.1406,Romania,RO,Covasna,,18491,16243
Gheorgheni,46.7200,25.5900,Romania,RO,Harghita,,18377,15884
Orăştie,45.8500,23.2000,Romania,RO,Hunedoara,,18227,16825
Balş,44.3500,24.0994,Romania,RO,Olt,,18164,16114
Băicoi,45.0453,25.8658,Romania,RO,Prahova,,17981,16722
Drăgăşani,44.6611,24.2606,Romania,RO,Vâlcea,,17871,15617
Salonta,46.8000,21.6500,Romania,RO,Bihor,,17735,15792
Băileşti,44.0308,23.3525,Romania,RO,Dolj,,17437,15928
Calafat,43.9858,22.9575,Romania,RO,Dolj,,17336,13807
Filiaşi,44.4000,23.5200,Romania,RO,Dolj,,16900,15031
Câmpulung Moldovenesc,47.5308,25.5514,Romania,RO,Suceava,,16722,15642
Corabia,43.7736,24.5033,Romania,RO,Olt,,16441,13527
Adjud,46.1000,27.1797,Romania,RO,Vrancea,,16045,15178
Breaza,45.1872,25.6622,Romania,RO,Prahova,,15928,14871
Râşnov,45.5933,25.4603,Romania,RO,Braşov,,15920,15920
Bocşa,45.3747,21.7106,Romania,RO,Caraş-Severin,,15842,12949
Marghita,47.3500,22.3333,Romania,RO,Bihor,,15770,13573
Baia-Sprie,47.6592,23.7042,Romania,RO,Maramureş,,15476,14329
Vişeu de Sus,47.7092,24.4239,Romania,RO,Maramureş,,15349,15349
Luduş,46.4778,24.0961,Romania,RO,Mureş,,15328,14757
Urziceni,44.7181,26.6453,Romania,RO,Ialomiţa,,15308,13380
Vicovu de Sus,47.9258,25.6800,Romania,RO,Suceava,,15143,15143
Chitila,44.5083,25.9819,Romania,RO,Ilfov,,14762,14762
Negreşti-Oaş,47.8694,23.4242,Romania,RO,Satu Mare,,14616,14616
Buhuşi,46.7150,26.7042,Romania,RO,Bacău,,14562,14152
Brad,46.1294,22.7900,Romania,RO,Hunedoara,,14495,12690
Vatra Dornei,47.3461,25.3594,Romania,RO,Suceava,,14429,12578
Măgurele,44.3494,26.0297,Romania,RO,Ilfov,,14414,14414
Mizil,45.0000,26.4406,Romania,RO,Prahova,,14312,12962
Pucioasa,45.0742,25.4342,Romania,RO,Dâmboviţa,,14254,12953
Zimnicea,43.6522,25.3681,Romania,RO,Teleorman,,14058,12589
Ovidiu,44.2700,28.5600,Romania,RO,Constanţa,,13968,13968
Topliţa,46.9236,25.3458,Romania,RO,Harghita,,13929,12609
Gura Humorului,47.5539,25.8892,Romania,RO,Suceava,,13667,13278
Jimbolia,45.7931,20.7375,Romania,RO,Timiş,,13597,10179
Găeşti,44.7194,25.3197,Romania,RO,Dâmboviţa,,13317,12583
Dărmăneşti,46.3700,26.4797,Romania,RO,Bacău,,13069,13069
Ocna Mureş,46.3900,23.8600,Romania,RO,Alba,,13036,12480
Bolintin Vale,44.4472,25.7572,Romania,RO,Giurgiu,,12929,12806
Avrig,45.7081,24.3747,Romania,RO,Sibiu,,12815,12534
Pecica,46.1700,21.0700,Romania,RO,Arad,,12762,11950
Simeria,45.8500,23.0100,Romania,RO,Hunedoara,,12556,11268
Sântana,46.3500,21.5000,Romania,RO,Arad,,12460,12460
Valu lui Traian,44.1650,28.4550,Romania,RO,Constanţa,,12376,12376
Moldova Nouă,44.7178,21.6639,Romania,RO,Caraş-Severin,,12350,9278
Cumpăna,44.1128,28.5558,Romania,RO,Constanţa,,12333,12333
Sânnicolau Mare,46.0636,20.6125,Romania,RO,Timiş,,12312,10627
Jilava,44.3328,26.0781,Romania,RO,Ilfov,,12223,12223
Dăbuleni,43.8011,24.0919,Romania,RO,Dolj,,12175,10333
Vălenii de Munte,45.1856,26.0397,Romania,RO,Prahova,,12044,12044
Comarnic,45.2511,25.6353,Romania,RO,Prahova,,11970,11106
Darabani,48.1864,26.5892,Romania,RO,Botoşani,,11948,11948
Rovinari,44.9125,23.1622,Romania,RO,Gorj,,11816,10246
Scorniceşti,44.5700,24.5500,Romania,RO,Olt,,11766,10795
Târgu Lăpuş,47.4525,23.8631,Romania,RO,Maramureş,,11744,11163
Matca,45.8500,27.5333,Romania,RO,Galaţi,,11605,11605
Săcueni,47.3525,22.0914,Romania,RO,Bihor,,11526,10720
Videle,44.2833,25.5333,Romania,RO,Teleorman,,11508,10107
Oraviţa,45.0403,21.6853,Romania,RO,Caraş-Severin,,11382,9346
Mărăşeşti,45.8800,27.2300,Romania,RO,Vrancea,,11314,11314
Târgu Ocna,46.2800,26.6200,Romania,RO,Bacău,,11300,10410
Călan,45.7361,23.0086,Romania,RO,Hunedoara,,11279,10055
Beclean,47.1797,24.1797,Romania,RO,Bistriţa-Năsăud,,11260,11260
Boldeşti-Scăeni,45.0300,26.0300,Romania,RO,Prahova,,11137,10298
Dolhasca,47.4303,26.6094,Romania,RO,Suceava,,11007,11007
Sângeorz-Băi,47.3700,24.6800,Romania,RO,Bistriţa-Năsăud,,10931,10931
Hârlău,47.4278,26.9114,Romania,RO,Iaşi,,10905,10349
Drăgăneşti-Olt,44.1697,24.5300,Romania,RO,Olt,,10894,9721
Cristuru Secuiesc,46.2917,25.0353,Romania,RO,Harghita,,10796,8797
Poiana Mare,43.9333,23.0833,Romania,RO,Dolj,,10740,9047
Beiuş,46.6500,22.3500,Romania,RO,Bihor,,10667,9745
Flămânzi,47.5500,26.8667,Romania,RO,Botoşani,,10561,10561
Urlaţi,44.9911,26.2306,Romania,RO,Prahova,,10541,10131
Oţelu Roşu,45.5186,22.3528,Romania,RO,Caraş-Severin,,10510,8497
Strehaia,44.6222,23.1972,Romania,RO,Mehedinţi,,10506,9059
Târgu Frumos,47.2097,27.0131,Romania,RO,Iaşi,,10475,9597
Orşova,44.7253,22.3961,Romania,RO,Mehedinţi,,10441,8506
Sinaia,45.3500,25.5514,Romania,RO,Prahova,,10410,9071
Jibou,47.2667,23.2500,Romania,RO,Sălaj,,10407,9677
Sovata,46.5961,25.0744,Romania,RO,Mureş,,10385,9703
Costeşti,44.6697,24.8800,Romania,RO,Argeş,,10375,9460
Ianca,45.1350,27.4747,Romania,RO,Brăila,,10343,8969
Lipova,46.0917,21.6917,Romania,RO,Arad,,10313,10040
Topoloveni,44.8069,25.0839,Romania,RO,Argeş,,10219,9373
Murfatlar,44.1736,28.4083,Romania,RO,Constanţa,,10216,9173
Năsăud,47.2833,24.4067,Romania,RO,Bistriţa-Năsăud,,10215,10215
Nehoiu,45.3531,26.3050,Romania,RO,Buzău,,10211,9464
Pechea,45.6333,27.8000,Romania,RO,Galaţi,,10126,10126
Covasna,45.8492,26.1853,Romania,RO,Covasna,,10114,9208
Poienile de sub Munte,47.8167,24.4333,Romania,RO,Maramureş,,10073,10073
Aleşd,47.0572,22.3969,Romania,RO,Bihor,,10066,9662
Valea lui Mihai,47.5200,22.1300,Romania,RO,Bihor,,9902,8969
Haţeg,45.6075,22.9500,Romania,RO,Hunedoara,,9685,8793
Titu,44.6622,25.5736,Romania,RO,Dâmboviţa,,9658,9291
Liteni,47.5200,26.5319,Romania,RO,Suceava,,9596,8878
Podu Iloaiei,47.2167,27.2667,Romania,RO,Iaşi,,9573,8992
Salcea,47.6500,26.3700,Romania,RO,Suceava,,9513,9513
Odobeşti,45.7667,27.0667,Romania,RO,Vrancea,,9423,9423
Huedin,46.8700,23.0300,Romania,RO,Cluj,,9346,8069
Ineu,46.4258,21.8369,Romania,RO,Arad,,9260,8807
Babadag,44.8981,28.7419,Romania,RO,Tulcea,,9213,9213
Cajvana,47.7044,25.9694,Romania,RO,Suceava,,9139,9139
Seini,47.7478,23.2853,Romania,RO,Maramureş,,8987,8198
Bumbeşti-Jiu,45.1786,23.3814,Romania,RO,Gorj,,8932,7684
Buşteni,45.4117,25.5372,Romania,RO,Prahova,,8894,8368
Sângeorgiu de Mureş,46.5500,24.4667,Romania,RO,Mureş,,8800,8800
Agnita,45.9731,24.6172,Romania,RO,Sibiu,,8732,7564
Săbăoani,47.0167,26.8500,Romania,RO,Neamţ,,8722,8722
Iernut,46.4536,24.2333,Romania,RO,Mureş,,8705,8473
Baraolt,46.0750,25.6000,Romania,RO,Covasna,,8672,7730
Tăşnad,47.4772,22.5839,Romania,RO,Satu Mare,,8631,8058
Bicaz,46.9108,26.0911,Romania,RO,Neamţ,,8626,6106
Roznov,46.8356,26.5117,Romania,RO,Neamţ,,8593,8133
Tăuţii Măgheruş,47.6678,23.4722,Romania,RO,Maramureş,,8463,8463
Băbeni,44.9750,24.2311,Romania,RO,Vâlcea,,8451,7570
Negreşti,46.8403,27.4417,Romania,RO,Vaslui,,8380,7530
Recaş,45.8292,21.5292,Romania,RO,Timiş,,8347,8347
Întorsura Buzăului,45.6728,26.0342,Romania,RO,Covasna,,8332,8332
Măcin,45.2456,28.1231,Romania,RO,Tulcea,,8245,7248
Tomeşti,47.1333,27.7000,Romania,RO,Iaşi,,8126,8126
Techirghiol,44.0575,28.5958,Romania,RO,Constanţa,,8061,8061
Târgu Cărbuneşti,44.9583,23.5064,Romania,RO,Gorj,,8034,7616
Roşu,44.4509,26.0083,Romania,RO,Bucureşti,,8020,8020
Chişineu Criş,46.5225,21.5158,Romania,RO,Arad,,7987,7212
Borcea,44.3333,27.7569,Romania,RO,Călăraşi,,7986,7986
Siret,47.9531,26.0725,Romania,RO,Suceava,,7976,6708
Mihăileşti,44.3239,25.9069,Romania,RO,Giurgiu,,7923,7760
Domneşti,44.4000,25.9167,Romania,RO,Ilfov,,7910,7910
Prim Decembrie,44.2833,26.0667,Romania,RO,Ilfov,,7817,7817
Budeşti,44.2300,26.4500,Romania,RO,Călăraşi,,7725,7126
Vlăhiţa,46.3500,25.5300,Romania,RO,Harghita,,7649,6468
Câmpeni,46.3625,23.0456,Romania,RO,Alba,,7629,6569
Mogoşoaia,44.5333,26.0000,Romania,RO,Ilfov,,7625,7625
Călimăneşti,45.2392,24.3433,Romania,RO,Vâlcea,,7622,7348
Fieni,45.1222,25.4183,Romania,RO,Dâmboviţa,,7587,6378
Modelu,44.2000,27.3833,Romania,RO,Călăraşi,,7564,7564
Dumbrăviţa,45.8042,21.2414,Romania,RO,Timiş,,7522,7522
Anina,45.0917,21.8533,Romania,RO,Caraş-Severin,,7485,5521
Chirnogi,44.1167,26.5833,Romania,RO,Călăraşi,,7455,7455
Curtici,46.3419,21.3061,Romania,RO,Arad,,7453,7279
Nădlac,46.1667,20.7506,Romania,RO,Arad,,7398,6713
Dumbrăveni,46.2275,24.5758,Romania,RO,Sibiu,,7388,6238
Segarcea,44.0944,23.7458,Romania,RO,Dolj,,7356,7356
Amara,44.6200,27.3200,Romania,RO,Ialomiţa,,7345,6805
Brăneşti,44.4500,26.3333,Romania,RO,Ilfov,,7305,7305
Pătârlagele,45.3189,26.3597,Romania,RO,Buzău,,7304,6276
Pogoanele,44.9167,27.0000,Romania,RO,Buzău,,7275,6384
Ulmeni,47.4656,23.3003,Romania,RO,Maramureş,,7270,7110
Turceni,44.6667,23.3833,Romania,RO,Gorj,,7269,6891
Cehu Silvaniei,47.4181,23.2867,Romania,RO,Sălaj,,7214,6369
Ghimbav,45.6628,25.5061,Romania,RO,Braşov,,7208,7208
Murgeni,46.2000,28.0167,Romania,RO,Vaslui,,7119,6853
Buziaş,45.6306,21.5883,Romania,RO,Timiş,,7023,6834
Ungheni,46.4858,24.4608,Romania,RO,Mureş,,7007,7007
Săveni,47.9533,26.8589,Romania,RO,Botoşani,,6999,6447
Pâncota,46.3225,21.6869,Romania,RO,Arad,,6946,6787
Sărmaşu,46.7536,24.1667,Romania,RO,Mureş,,6942,6186
Răcari,44.6333,25.7333,Romania,RO,Dâmboviţa,,6930,6306
Panciu,45.9100,27.0900,Romania,RO,Vrancea,,6921,6921
Tălmaciu,45.6667,24.2611,Romania,RO,Sibiu,,6905,6711
Fundulea,44.4528,26.5153,Romania,RO,Călăraşi,,6851,6714
Livada,47.8667,23.1333,Romania,RO,Satu Mare,,6773,5892
Făget,45.8517,22.1744,Romania,RO,Timiş,,6761,6595
Teiuş,46.2000,23.6800,Romania,RO,Alba,,6695,6308
Lehliu-Gară,44.4383,26.8533,Romania,RO,Călăraşi,,6502,5991
Horezu,45.1433,23.9917,Romania,RO,Vâlcea,,6467,6467
Dancu,47.1530,27.6619,Romania,RO,Iaşi,,6444,6444
Piatra Olt,44.3667,24.2667,Romania,RO,Olt,,6299,6000
Bujor,45.8667,27.9000,Romania,RO,Galaţi,,6299,5946
Baloteşti,44.6167,26.1000,Romania,RO,Ilfov,,6286,6286
Deta,45.4022,21.2508,Romania,RO,Timiş,,6260,5670
Ardud,47.6333,22.8833,Romania,RO,Satu Mare,,6231,6124
Lunca Cetăţuii,47.0931,27.5662,Romania,RO,Iaşi,,6227,6227
Dragalina,44.4333,27.3333,Romania,RO,Călăraşi,,6218,6218
Bălan,46.6497,25.8100,Romania,RO,Harghita,,6115,5414
Roseţi,44.2167,27.4333,Romania,RO,Călăraşi,,6070,6070
Cornetu,44.3500,25.9500,Romania,RO,Ilfov,,6040,6040
Slănic,45.2333,25.9392,Romania,RO,Prahova,,6034,4669
Sebiş,46.3728,22.1294,Romania,RO,Arad,,5979,5410
Berceni,44.3167,26.1833,Romania,RO,Ilfov,,5942,5942
Săvineşti,46.8602,26.4686,Romania,RO,Neamţ,,5921,5921
Frasin,47.5183,25.7819,Romania,RO,Suceava,,5876,5817
Gătaia,45.3917,21.3969,Romania,RO,Timiş,,5861,5473
Potcoava,44.4833,24.6158,Romania,RO,Olt,,5743,5229
Fundeni,44.3833,26.3667,Romania,RO,Călăraşi,,5658,5658
Giroc,45.6822,21.2339,Romania,RO,Timiş,,5652,5652
Curcani,44.2000,26.5833,Romania,RO,Călăraşi,,5609,5609
Miercurea Nirajului,46.5300,24.8000,Romania,RO,Mureş,,5554,5414
Glina,44.3833,26.2500,Romania,RO,Ilfov,,5494,5494
Copşa Mică,46.1125,24.2306,Romania,RO,Sibiu,,5404,4570
Sâncraiu de Mureş,46.5500,24.5200,Romania,RO,Mureş,,5385,5385
Baia de Aramă,45.0000,22.8114,Romania,RO,Mehedinţi,,5349,4478
Vânju-Mare,44.4250,22.8694,Romania,RO,Mehedinţi,,5311,5078
Geoagiu,45.9200,23.2000,Romania,RO,Hunedoara,,5294,5087
Dobroeşti,44.4511,26.1806,Romania,RO,Ilfov,,5274,5274
Rupea,46.0389,25.2225,Romania,RO,Braşov,,5269,4907
Abrud,46.2739,23.0633,Romania,RO,Alba,,5072,4360
Isaccea,45.2697,28.4597,Romania,RO,Tulcea,,5026,4408
Băile Herculane,44.8786,22.4142,Romania,RO,Caraş-Severin,,5008,3787
Tunari,44.5500,26.1333,Romania,RO,Ilfov,,5007,5007
Milişăuţi,47.7864,26.0044,Romania,RO,Suceava,,5005,4657
Valea Lupului,47.1833,27.5000,Romania,RO,Iaşi,,4982,4982
Cavnic,47.6608,23.8778,Romania,RO,Maramureş,,4976,4264
Fierbinţi-Târg,44.6833,26.3833,Romania,RO,Ilfov,,4969,4620
Ulmeni,44.1500,26.7167,Romania,RO,Călăraşi,,4962,4962
Volovăţ,47.8167,25.9000,Romania,RO,Suceava,,4952,4952
Săliştea de Sus,47.6500,24.3500,Romania,RO,Maramureş,,4893,4856
Bălceşti,44.6167,23.9394,Romania,RO,Vâlcea,,4864,4235
Agigea,44.0917,28.6114,Romania,RO,Constanţa,,4853,4853
Berbeşti,44.9881,23.8683,Romania,RO,Vâlcea,,4836,4231
Cernele,44.3344,23.7444,Romania,RO,Dolj,,4783,4783
Bucov,44.9667,26.0833,Romania,RO,Prahova,,4783,4783
Predeal,45.5044,25.5783,Romania,RO,Braşov,,4755,4020
Cristeşti,46.5000,24.4833,Romania,RO,Mureş,,4754,4754
Clinceni,44.3778,25.9431,Romania,RO,Ilfov,,4708,4708
Başcov,44.9000,24.8167,Romania,RO,Argeş,,4653,4653
Ghiroda,45.7867,21.3147,Romania,RO,Timiş,,4605,4605
Doiceşti,44.9833,25.4000,Romania,RO,Dâmboviţa,,4584,4584
Chiajna,44.4600,25.9750,Romania,RO,Ilfov,,4511,4511
Azuga,45.4450,25.5553,Romania,RO,Prahova,,4440,3901
Voitinel,47.8833,25.7667,Romania,RO,Suceava,,4387,4387
Aninoasa,45.4111,23.3139,Romania,RO,Hunedoara,,4360,3369
Bechet,43.7833,23.9500,Romania,RO,Dolj,,4355,4355
Valea Mare-Podgoria,44.8851,24.9061,Romania,RO,Argeş,,4318,4318
Floreşti,44.5085,25.6938,Romania,RO,Giurgiu,,4290,4290
Victoria,47.3000,27.6000,Romania,RO,Iaşi,,4282,3819
Bucecea,47.7667,26.4333,Romania,RO,Botoşani,,4274,4171
Ciocăneşti,44.2000,27.0833,Romania,RO,Călăraşi,,4257,4257
Cenad,46.0914,20.5453,Romania,RO,Timiş,,4207,3537
Slănic-Moldova,46.2069,26.4306,Romania,RO,Bacău,,4198,4011
Perişoru,44.4500,27.5500,Romania,RO,Călăraşi,,4174,4174
Ungheni-Prut,47.2139,27.7639,Romania,RO,Iaşi,,4173,3582
Pleaşa,45.0038,26.0714,Romania,RO,Prahova,,4123,4123
Baia de Arieş,46.3794,23.2797,Romania,RO,Alba,,4074,3035
Fundeni,44.4595,26.1668,Romania,RO,Bucureşti,,4051,4051
Ciorogârla,44.4500,25.8833,Romania,RO,Ilfov,,3919,3919
Miercurea Sibiului,45.8833,23.7833,Romania,RO,Sibiu,,3910,3619
Radovanu,44.2000,26.5167,Romania,RO,Călăraşi,,3802,3802
Sfântu Ilie,47.6366,26.2084,Romania,RO,Suceava,,3788,3788
Gălbinaşi,44.3167,26.4167,Romania,RO,Călăraşi,,3772,3772
Ipoteşti,47.6167,26.2833,Romania,RO,Suceava,,3759,3759
Dor Mărunt,44.4500,26.9167,Romania,RO,Călăraşi,,3754,3754
Blejoiu,45.0000,26.0167,Romania,RO,Prahova,,3638,3638
Pârcovaci,47.4363,26.8473,Romania,RO,Iaşi,,3607,3607
Făurei,45.0842,27.2728,Romania,RO,Brăila,,3592,3008
Vasilaţi,44.3000,26.4500,Romania,RO,Călăraşi,,3590,3590
Mânăstirea,44.2167,26.9000,Romania,RO,Călăraşi,,3573,3573
Ocna Sibiului,45.8747,24.0667,Romania,RO,Sibiu,,3562,3434
Cornu de Jos,45.1553,25.7018,Romania,RO,Prahova,,3456,3456
Mărgineni,46.5833,26.8333,Romania,RO,Bacău,,3446,3446
Sântana de Mureş,46.5700,24.5500,Romania,RO,Mureş,,3441,3441
Adjudeni,47.0141,26.9490,Romania,RO,Neamţ,,3429,3429
Chiselet,44.1833,26.8500,Romania,RO,Călăraşi,,3392,3392
Ocnele Mari,45.0833,24.3167,Romania,RO,Vâlcea,,3309,3134
Căpăţâneşti,45.1894,26.7929,Romania,RO,Buzău,,3296,3296
Căzăneşti,44.6192,27.0100,Romania,RO,Ialomiţa,,3271,2938
Mărăcineni,44.9000,24.8833,Romania,RO,Argeş,,3228,3228
Bărcăneşti,44.8833,26.0500,Romania,RO,Prahova,,3226,3226
Ploeştiori,44.9810,26.0197,Romania,RO,Prahova,,3222,3222
Dragomireşti,47.6669,24.2914,Romania,RO,Maramureş,,3213,3154
Malu Spart,44.4438,25.7157,Romania,RO,Giurgiu,,3200,3200
Brăneşti,45.0417,25.4194,Romania,RO,Dâmboviţa,,3171,3171
Cernica,44.4167,26.2833,Romania,RO,Ilfov,,3136,3136
Copăcenii de Jos,44.2722,26.0792,Romania,RO,Giurgiu,,3131,3131
Tânganu,44.4070,26.3090,Romania,RO,Călăraşi,,3110,3110
Băneşti,45.1000,25.7667,Romania,RO,Prahova,,3096,3096
Tămăşeni,46.9940,26.9505,Romania,RO,Neamţ,,3064,3064
Dărăşti-Ilfov,44.3167,26.0167,Romania,RO,Ilfov,,3026,3026
Iazu,44.7177,25.8309,Romania,RO,Dâmboviţa,,3025,3025
Tătărani,44.8931,26.0348,Romania,RO,Prahova,,3013,3013
Goranu,45.1052,24.3843,Romania,RO,Vâlcea,,3010,3010
Mărăcineni,45.2000,26.8000,Romania,RO,Buzău,,2996,2996
Braniştea,44.6833,25.5833,Romania,RO,Dâmboviţa,,2978,2978
Buciumeni,44.5489,25.9633,Romania,RO,Ilfov,,2976,2976
Fântânele,44.7126,25.8812,Romania,RO,Dâmboviţa,,2934,2934
Frumuşani,44.3000,26.3333,Romania,RO,Călăraşi,,2916,2916
Bereşti-Târg,46.1000,27.8833,Romania,RO,Galaţi,,2916,2473
Bălăceanca,44.3931,26.2897,Romania,RO,Ilfov,,2865,2865
Două Mai,43.7872,28.5775,Romania,RO,Constanţa,,2848,2848
Căţelu,44.4031,26.2177,Romania,RO,Ilfov,,2790,2790
Palanca,44.4743,25.7247,Romania,RO,Giurgiu,,2775,2775
Stancea,44.1367,26.8129,Romania,RO,Călăraşi,,2744,2744
Holboca,47.1500,27.7000,Romania,RO,Iaşi,,2737,2737
Dragomireşti-Deal,44.4594,25.9460,Romania,RO,Ilfov,,2669,2669
Nana,44.2667,26.5833,Romania,RO,Călăraşi,,2568,2568
Rasova,44.2458,27.9344,Romania,RO,Călăraşi,,2558,2558
Gârcina,46.9833,26.3000,Romania,RO,Neamţ,,2554,2554
Filipeştii de Târg,44.9833,25.7833,Romania,RO,Prahova,,2553,2553
Decindeni,44.9085,25.3281,Romania,RO,Dâmboviţa,,2502,2502
Teiş,44.9635,25.4029,Romania,RO,Dâmboviţa,,2489,2489
Corbeanca,44.6000,26.0500,Romania,RO,Ilfov,,2475,2475
Viforâta,44.9604,25.4566,Romania,RO,Dâmboviţa,,2474,2474
Băile Govora,45.0800,24.1797,Romania,RO,Vâlcea,,2449,2158
Bogdan Vodă,47.6903,24.2694,Romania,RO,Maramureş,,2445,2445
Solca,47.7025,25.8317,Romania,RO,Suceava,,2405,2405
Ciurea,47.0667,27.5833,Romania,RO,Iaşi,,2403,2403
Răzvani,44.4212,26.8779,Romania,RO,Călăraşi,,2374,2374
Aninoasa,45.0667,25.4333,Romania,RO,Dâmboviţa,,2347,2347
Cojasca,44.7167,25.8500,Romania,RO,Dâmboviţa,,2317,2317
Vaşcău,46.4797,22.4797,Romania,RO,Bihor,,2315,2025
Luna de Sus,46.7425,23.4318,Romania,RO,Cluj,,2310,2310
Maxut,47.4417,26.8930,Romania,RO,Iaşi,,2284,2284
Valea Roşie,44.1775,26.6344,Romania,RO,Călăraşi,,2276,2276
Dârvari,44.4213,25.8780,Romania,RO,Ilfov,,2269,2269
Malu Alb,45.7969,27.4630,Romania,RO,Galaţi,,2268,2268
Crivăţ,44.2000,26.4333,Romania,RO,Călăraşi,,2243,2243
Miroslava,47.1500,27.5167,Romania,RO,Iaşi,,2221,2221
Tonea,44.2059,27.4103,Romania,RO,Călăraşi,,2188,2188
Unirea,44.2700,27.6300,Romania,RO,Călăraşi,,2177,2177
Cuza Vodă,44.2667,27.2500,Romania,RO,Călăraşi,,2170,2170
Nucet,46.4842,22.5614,Romania,RO,Bihor,,2165,1987
Lipăneşti,45.0500,26.0167,Romania,RO,Prahova,,2160,2160
Urleta,45.0860,25.7947,Romania,RO,Prahova,,2144,2144
Grădiştea,44.2389,27.2124,Romania,RO,Călăraşi,,2123,2123
Dragomireşti,44.9167,25.3333,Romania,RO,Dâmboviţa,,2122,2122
Independenţa,44.2833,27.1500,Romania,RO,Călăraşi,,2115,2115
Asău,46.4500,26.4000,Romania,RO,Bacău,,2112,2112
Stoeneşti,44.4857,25.7120,Romania,RO,Giurgiu,,2108,2108
Nazna,46.5355,24.5021,Romania,RO,Mureş,,2104,2104
Valea Râmnicului,45.3583,27.0444,Romania,RO,Buzău,,2039,2039
Tamaşi,44.5836,26.0060,Romania,RO,Ilfov,,2031,2031
Remuş,43.9433,25.9804,Romania,RO,Giurgiu,,2020,2020
Săsar,47.6233,23.4592,Romania,RO,Maramureş,,2016,2016
Râncăciov,44.8898,25.3530,Romania,RO,Dâmboviţa,,1996,1996
Potoceni,45.1966,26.7765,Romania,RO,Buzău,,1987,1987
Cornetu,45.5046,27.0531,Romania,RO,Vrancea,,1984,1984
Româneşti,44.8586,26.0709,Romania,RO,Prahova,,1977,1977
Lipia,45.1395,26.7356,Romania,RO,Buzău,,1974,1974
Argeşelu,44.9274,24.8711,Romania,RO,Argeş,,1965,1965
Jegălia,44.3000,27.6333,Romania,RO,Călăraşi,,1945,1945
Sohatu,44.3167,26.5000,Romania,RO,Călăraşi,,1933,1933
Căscioarele,44.1260,26.4700,Romania,RO,Călăraşi,,1912,1912
Mislea,45.0950,25.8242,Romania,RO,Prahova,,1910,1910
Colibaşi,44.9355,24.9088,Romania,RO,Argeş,,1899,1899
Olteni,44.4027,25.9549,Romania,RO,Ilfov,,1881,1881
Lehliu,44.4667,26.8167,Romania,RO,Călăraşi,,1857,1857
Măneuţi,47.8997,25.9274,Romania,RO,Suceava,,1741,1741
Sântion,47.0963,21.8366,Romania,RO,Bihor,,1734,1734
Dorolţ,47.8500,22.8167,Romania,RO,Satu Mare,,1730,1730
Dudu,44.4563,25.9906,Romania,RO,Ilfov,,1728,1728
Racoviţa,44.9708,24.9758,Romania,RO,Argeş,,1719,1719
Plătăreşti,44.3500,26.3667,Romania,RO,Călăraşi,,1711,1711
Bogata,46.4500,24.0667,Romania,RO,Mureş,,1681,1681
Luica,44.2333,26.5833,Romania,RO,Călăraşi,,1650,1650
Săruleşti-Gară,44.4444,26.6578,Romania,RO,Călăraşi,,1650,1650
Băile Tuşnad,46.1469,25.8606,Romania,RO,Harghita,,1641,1372
Ostratu,44.6060,26.0139,Romania,RO,Ilfov,,1623,1623
Lazu,44.1150,28.6062,Romania,RO,Constanţa,,1613,1613
Dorobanţu,44.2167,26.9500,Romania,RO,Călăraşi,,1612,1612
Islaz,44.4612,26.3872,Romania,RO,Ilfov,,1609,1609
Plopeni,45.0500,25.9500,Romania,RO,Prahova,,1590,1590
Dragomireşti-Vale,44.4667,25.9333,Romania,RO,Ilfov,,1579,1579
Lunga,46.0209,26.2096,Romania,RO,Covasna,,1551,1551
Vlad Ţepeş,44.3500,27.0833,Romania,RO,Călăraşi,,1544,1544
Sânleani,46.2125,21.3887,Romania,RO,Arad,,1538,1538
Lieşti,45.4959,27.0471,Romania,RO,Vrancea,,1528,1528
Săteni,44.9720,25.4175,Romania,RO,Dâmboviţa,,1523,1523
Moţăeni,45.1000,25.4167,Romania,RO,Dâmboviţa,,1512,1512
Săftica,44.6212,26.0687,Romania,RO,Ilfov,,1509,1509
Valea Argovei,44.3500,26.7833,Romania,RO,Călăraşi,,1505,1505
Bucovăţ,44.3000,23.7333,Romania,RO,Dolj,,1504,1504
Mitreni,44.1667,26.6000,Romania,RO,Călăraşi,,1498,1498
Dedrad,46.8167,24.6667,Romania,RO,Mureş,,1497,1497
Valea Vişeului,47.9083,24.1500,Romania,RO,Maramureş,,1491,1491
Adjudu Vechi,46.1349,27.1889,Romania,RO,Vrancea,,1469,1469
Corlăteşti,44.9134,26.0861,Romania,RO,Prahova,,1432,1432
Breazu,47.2166,27.5169,Romania,RO,Iaşi,,1430,1430
Nicolae Bălcescu,44.2806,27.0775,Romania,RO,Călăraşi,,1384,1384
Aghireş,47.1616,23.0176,Romania,RO,Sălaj,,1375,1375
Piteasca,44.4934,26.3302,Romania,RO,Ilfov,,1341,1341
Gâldău,44.3054,27.6697,Romania,RO,Călăraşi,,1337,1337
Radu Vodă,44.3866,26.9264,Romania,RO,Călăraşi,,1334,1334
Ighişu Nou,46.1139,24.3472,Romania,RO,Sibiu,,1325,1325
Pasărea,44.4732,26.3193,Romania,RO,Ilfov,,1325,1325
Odăile,44.5344,26.0577,Romania,RO,Ilfov,,1321,1321
Progresu,44.3594,26.4590,Romania,RO,Călăraşi,,1307,1307
Vânători,47.2434,27.5242,Romania,RO,Iaşi,,1304,1304
Teliucu Inferior,45.7167,22.8833,Romania,RO,Hunedoara,,1295,1295
Cristur,45.8257,22.9431,Romania,RO,Hunedoara,,1292,1292
Feteşti,47.4093,26.9089,Romania,RO,Iaşi,,1292,1292
Dumbrava,47.0768,27.5502,Romania,RO,Iaşi,,1269,1269
Drajna Nouă,44.4226,27.3801,Romania,RO,Călăraşi,,1265,1265
Goruni,47.1050,27.7130,Romania,RO,Iaşi,,1264,1264
Hăghiac,46.3120,26.5184,Romania,RO,Bacău,,1261,1261
Nicolae Bălcescu,44.4500,26.7500,Romania,RO,Călăraşi,,1246,1246
Dorobanţu,44.3542,26.3934,Romania,RO,Călăraşi,,1241,1241
Ulmi,44.9167,25.4833,Romania,RO,Dâmboviţa,,1239,1239
Vâlcelele,44.3833,27.1667,Romania,RO,Călăraşi,,1236,1236
Ceacu,44.2659,27.2521,Romania,RO,Călăraşi,,1233,1233
Uiasca,44.8839,24.8212,Romania,RO,Argeş,,1226,1226
Dâmbovicioara,44.6751,25.5528,Romania,RO,Dâmboviţa,,1220,1220
Chiţorani,44.9703,26.1232,Romania,RO,Prahova,,1212,1212
Sălcioara,44.5333,26.8833,Romania,RO,Ialomiţa,,1211,1211
Izvoarele,47.0455,26.8979,Romania,RO,Iaşi,,1209,1209
Cătina,45.0101,25.7827,Romania,RO,Prahova,,1205,1205
Rasa,44.2138,27.1444,Romania,RO,Călăraşi,,1203,1203
Traian,46.9914,26.9044,Romania,RO,Neamţ,,1179,1179
Căldăraru,44.4123,26.2624,Romania,RO,Ilfov,,1176,1176
Budeasa Mare,44.9203,24.8338,Romania,RO,Argeş,,1169,1169
Aprozi,44.2662,26.5021,Romania,RO,Călăraşi,,1166,1166
Straja,46.4399,26.3626,Romania,RO,Bacău,,1148,1148
Peştişu Mare,45.8028,22.9283,Romania,RO,Hunedoara,,1144,1144
Valea Mare-Pravăţ,45.2833,25.0833,Romania,RO,Argeş,,1140,1140
Ocina de Sus,45.2006,25.5988,Romania,RO,Prahova,,1139,1139
Valea Mare,44.9378,24.2388,Romania,RO,Vâlcea,,1134,1134
Chicerea,47.1027,27.7479,Romania,RO,Iaşi,,1116,1116
Negoeşti,44.2306,26.5013,Romania,RO,Călăraşi,,1114,1114
Belciugatele,44.4833,26.4333,Romania,RO,Călăraşi,,1101,1101
Bughea de Jos,45.1799,26.0204,Romania,RO,Prahova,,1096,1096
Scobâlţeni,47.2015,27.2811,Romania,RO,Iaşi,,1094,1094
Tămădău Mare,44.4667,26.5500,Romania,RO,Călăraşi,,1088,1088
Vălureni,46.5002,24.5460,Romania,RO,Mureş,,1070,1070
Alexandru Odobescu,44.2667,27.0833,Romania,RO,Călăraşi,,1066,1066
Cornu de Sus,45.1682,25.6963,Romania,RO,Prahova,,1060,1060
Sultana,44.2628,26.8501,Romania,RO,Călăraşi,,1055,1055
Glâmbocu,44.8937,24.7925,Romania,RO,Argeş,,1041,1041
Curteni,46.5944,24.5750,Romania,RO,Mureş,,1038,1038
Bobolia,45.0929,25.7420,Romania,RO,Prahova,,1032,1032
Sălcuţa,44.6436,25.5806,Romania,RO,Dâmboviţa,,1029,1029
Valea Stânii,44.9867,24.9647,Romania,RO,Argeş,,1026,1026
Poiana Copăceni,45.1640,26.0691,Romania,RO,Prahova,,1010,1010
Vărăşti,44.2150,26.9686,Romania,RO,Călăraşi,,1005,1005
Ileana,44.5167,26.6500,Romania,RO,Călăraşi,,1002,1002
