city,lat,lng,country,iso2,admin_name,capital,population,population_proper
Ljubljana,46.0514,14.5061,Slovenia,SI,Ljubljana,primary,286745,284293
Maribor,46.5575,15.6456,Slovenia,SI,Maribor,admin,97019,96211
Kranj,46.2333,14.3667,Slovenia,SI,Kranj,admin,37941,37553
Celje,46.2358,15.2675,Slovenia,SI,Celje,admin,37872,37872
Koper,45.5500,13.7333,Slovenia,SI,Koper,admin,25753,25753
Velenje,46.3625,15.1144,Slovenia,SI,Velenje,admin,25594,25594
Novo Mesto,45.8000,15.1667,Slovenia,SI,Novo Mesto,admin,24183,24183
Ptuj,46.4194,15.8694,Slovenia,SI,Ptuj,admin,17959,17959
Kamnik,46.2257,14.6120,Slovenia,SI,Kamnik,admin,13880,13880
Trbovlje,46.1500,15.0500,Slovenia,SI,Trbovlje,admin,13822,13822
Jesenice,46.4366,14.0602,Slovenia,SI,Jesenice,admin,13338,13338
Domžale,46.1394,14.5950,Slovenia,SI,Domžale,admin,13204,13204
Nova Gorica,45.9558,13.6433,Slovenia,SI,Nova Gorica,admin,13031,13031
Izola,45.5344,13.6675,Slovenia,SI,Izola,admin,11682,11682
Škofja Loka,46.1672,14.3030,Slovenia,SI,Škofja Loka,admin,11671,11671
Murska Sobota,46.6667,16.1667,Slovenia,SI,Murska Sobota,admin,11107,11107
Postojna,45.7759,14.2137,Slovenia,SI,Postojna,admin,9605,9605
Logatec,45.9167,14.2297,Slovenia,SI,Logatec,admin,9091,9091
Vrhnika,45.9624,14.2937,Slovenia,SI,Vrhnika,admin,8888,8888
Slovenska Bistrica,46.3903,15.5750,Slovenia,SI,Slovenska Bistrica,admin,8219,8219
Kočevje,45.6430,14.8594,Slovenia,SI,Kočevje,admin,8151,8151
Grosuplje,45.9551,14.6562,Slovenia,SI,Grosuplje,admin,7703,7703
Ravne na Koroškem,46.5437,14.9642,Slovenia,SI,Ravne na Koroškem,admin,7363,7363
Slovenj Gradec,46.5094,15.0792,Slovenia,SI,Slovenj Gradec,admin,7249,7249
Krško,45.9500,15.4833,Slovenia,SI,Krško,admin,7217,7217
Ajdovščina,45.8861,13.9097,Slovenia,SI,Ajdovščina,admin,6843,6843
Brežice,45.9048,15.5922,Slovenia,SI,Brežice,admin,6843,6843
Litija,46.0667,14.8167,Slovenia,SI,Litija,admin,6673,6673
Mengeš,46.1626,14.5680,Slovenia,SI,Mengeš,admin,6119,6119
Lucija,45.5067,13.6016,Slovenia,SI,Piran,,6057,6057
Sežana,45.7034,13.8706,Slovenia,SI,Sežana,admin,6037,6037
Zagorje,46.1342,14.9942,Slovenia,SI,Zagorje ob Savi,admin,6023,6023
Radovljica,46.3425,14.1721,Slovenia,SI,Radovljica,admin,5981,5981
Idrija,46.0025,14.0275,Slovenia,SI,Idrija,admin,5886,5886
Črnomelj,45.5711,15.1889,Slovenia,SI,Črnomelj,admin,5496,5496
Medvode,46.1382,14.4147,Slovenia,SI,Medvode,admin,5380,5380
Slovenske Konjice,46.3383,15.4233,Slovenia,SI,Slovenske Konjice,admin,5157,5157
Rogaška Slatina,46.2314,15.6381,Slovenia,SI,Rogaška Slatina,admin,5082,5082
Žalec,46.2510,15.1639,Slovenia,SI,Žalec,admin,5000,5000
Hrastnik,46.1479,15.1528,Slovenia,SI,Hrastnik,admin,4962,4962
Šentjur,46.2176,15.3960,Slovenia,SI,Šentjur,admin,4940,4940
Bled,46.3688,14.1140,Slovenia,SI,Bled,admin,4929,4929
Prevalje,46.5438,14.9119,Slovenia,SI,Prevalje,admin,4620,4620
Sevnica,46.0092,15.3041,Slovenia,SI,Sevnica,admin,4533,4533
Ilirska Bistrica,45.5679,14.2527,Slovenia,SI,Ilirska Bistrica,admin,4323,4323
Ruše,46.5386,15.5154,Slovenia,SI,Ruše,admin,4208,4208
Cerknica,45.7964,14.3581,Slovenia,SI,Cerknica,admin,4018,4018
Trebnje,45.9104,15.0086,Slovenia,SI,Trebnje,admin,3927,3927
Trzin,46.1353,14.5600,Slovenia,SI,Trzin,admin,3925,3925
Miklavž na Dravskem Polju,46.5057,15.6993,Slovenia,SI,Miklavž na Dravskem Polju,admin,3808,3808
Piran,45.5283,13.5683,Slovenia,SI,Piran,admin,3730,3730
Šempeter pri Gorici,45.9284,13.6378,Slovenia,SI,Šempeter-Vrtojba,admin,3694,3694
Tržič,46.3581,14.2930,Slovenia,SI,Tržič,admin,3670,3670
Žiri,46.0469,14.1097,Slovenia,SI,Žiri,admin,3657,3657
Ribnica,45.7400,14.7308,Slovenia,SI,Ribnica,admin,3612,3612
Tolmin,46.1857,13.7352,Slovenia,SI,Tolmin,admin,3525,3525
Laško,46.1563,15.2386,Slovenia,SI,Laško,admin,3288,3288
Lenart v Slovenskih Goricah,46.5742,15.8322,Slovenia,SI,Lenart,admin,3285,3285
Ljutomer,46.5168,16.2027,Slovenia,SI,Ljutomer,admin,3270,3270
Metlika,45.6517,15.3200,Slovenia,SI,Metlika,admin,3229,3229
Ankaran,45.5793,13.7379,Slovenia,SI,Ankaran,admin,3224,3224
Brezovica,46.0207,14.4178,Slovenia,SI,Brezovica,admin,3221,3221
Solkan,45.9695,13.6455,Slovenia,SI,Nova Gorica,,3216,3216
Bistrica pri Tržiču,46.3581,14.2930,Slovenia,SI,Tržič,,3187,3187
Mežica,46.5206,14.8536,Slovenia,SI,Mežica,admin,3176,3176
Šenčur,46.2430,14.4181,Slovenia,SI,Šenčur,admin,3121,3121
Dravograd,46.5903,15.0236,Slovenia,SI,Dravograd,admin,3088,3088
Gornja Radgona,46.6752,15.9926,Slovenia,SI,Gornja Radgona,admin,3086,3086
Železniki,46.2182,14.1592,Slovenia,SI,Železniki,admin,3069,3069
Lendava,46.5631,16.4519,Slovenia,SI,Lendava,admin,2954,2954
Rogašovci,46.8053,16.0344,Slovenia,SI,Rogašovci,admin,2946,2946
Šoštanj,46.3798,15.0482,Slovenia,SI,Šoštanj,admin,2933,2933
Zreče,46.3750,15.3854,Slovenia,SI,Zreče,admin,2922,2922
Lesce,46.3600,14.1564,Slovenia,SI,Radovljica,,2918,2918
Portorož,45.5166,13.5800,Slovenia,SI,Piran,,2866,2866
Radlje ob Dravi,46.6152,15.2264,Slovenia,SI,Radlje ob Dravi,admin,2856,2856
Škofljica,45.9836,14.5761,Slovenia,SI,Škofljica,admin,2716,2716
Rače,46.4529,15.6812,Slovenia,SI,Rače-Fram,admin,2693,2693
Borovnica,45.9197,14.3572,Slovenia,SI,Borovnica,admin,2674,2674
Vnanje Gorice,46.0025,14.4145,Slovenia,SI,Brezovica,,2605,2605
Vrtojba,45.9089,13.6364,Slovenia,SI,Šempeter-Vrtojba,,2598,2598
Vojnik,46.2933,15.3052,Slovenia,SI,Vojnik,admin,2475,2475
Senovo,46.0259,15.4804,Slovenia,SI,Krško,,2448,2448
Beltinci,46.6060,16.2328,Slovenia,SI,Beltinci,admin,2430,2430
Polzela,46.2809,15.0740,Slovenia,SI,Polzela,admin,2351,2351
Muta,46.6167,15.1667,Slovenia,SI,Muta,admin,2291,2291
Štore,46.2219,15.3111,Slovenia,SI,Štore,admin,2257,2257
Ig,45.9692,14.5394,Slovenia,SI,Ig,admin,2240,2240
Koroška-Bela,46.4367,14.1019,Slovenia,SI,Jesenice,,2206,2206
Ivančna Gorica,45.9374,14.8029,Slovenia,SI,Ivančna Gorica,admin,2205,2205
Črna na Koroškem,46.4697,14.8490,Slovenia,SI,Črna na Koroškem,admin,2201,2201
Rakek,45.8145,14.3123,Slovenia,SI,Cerknica,,2190,2190
Jagodje,45.5282,13.6471,Slovenia,SI,Izola,,2153,2153
Radenci,46.6500,16.0500,Slovenia,SI,Radenci,admin,2142,2142
Spodnje Hoče,46.4996,15.6471,Slovenia,SI,Hoče-Slivnica,admin,2109,2109
Preserje pri Radomljah,46.1662,14.5926,Slovenia,SI,Mengeš,,2070,2070
Pivka,45.6833,14.2000,Slovenia,SI,Pivka,admin,2059,2059
Mozirje,46.3381,14.9572,Slovenia,SI,Mozirje,admin,2052,2052
Vipava,45.8476,13.9624,Slovenia,SI,Vipava,admin,2049,2049
Semič,45.6546,15.1783,Slovenia,SI,Semič,admin,2017,2017
Limbuš,46.5581,15.5787,Slovenia,SI,Maribor,,2002,2002
Radeče,46.0658,15.1728,Slovenia,SI,Radeče,admin,1993,1993
Lovrenc na Pohorju,46.5381,15.3844,Slovenia,SI,Lovrenc na Pohorju,admin,1992,1992
Ormož,46.4086,16.1475,Slovenia,SI,Ormož,admin,1962,1962
Notranje Gorice,45.9868,14.3976,Slovenia,SI,Brezovica,,1950,1950
Straža,45.7864,15.0745,Slovenia,SI,Straža,admin,1945,1945
Mislinja,46.4431,15.1931,Slovenia,SI,Mislinja,admin,1862,1862
Spodnja Idrija,46.0314,14.0256,Slovenia,SI,Idrija,,1860,1860
Hrušica,46.4459,14.0130,Slovenia,SI,Jesenice,,1843,1843
Zgornji Duplek,46.5092,15.7327,Slovenia,SI,Duplek,,1824,1824
Kromberk,45.9592,13.6686,Slovenia,SI,Nova Gorica,,1820,1820
Naklo,46.2749,14.3176,Slovenia,SI,Naklo,admin,1776,1776
Bohinjska Bistrica,46.2742,13.9524,Slovenia,SI,Bohinj,admin,1767,1767
Šmarje,46.2281,15.5182,Slovenia,SI,Šmarje pri Jelšah,admin,1755,1755
Černelavci,46.6708,16.1369,Slovenia,SI,Murska Sobota,,1741,1741
Divača,45.6820,13.9702,Slovenia,SI,Divača,admin,1734,1734
Kamnica,46.5746,15.6135,Slovenia,SI,Maribor,,1725,1725
Radomlje,46.1780,14.6112,Slovenia,SI,Domžale,,1715,1715
Cerklje na Gorenjskem,46.2488,14.4855,Slovenia,SI,Cerklje na Gorenjskem,admin,1710,1710
Spodnji Duplek,46.5053,15.7467,Slovenia,SI,Duplek,admin,1689,1689
Britof,46.2579,14.3835,Slovenia,SI,Kranj,,1657,1657
Dob,46.1542,14.6280,Slovenia,SI,Domžale,,1638,1638
Odranci,46.5856,16.2753,Slovenia,SI,Odranci,admin,1632,1632
Vodice,46.1833,14.4833,Slovenia,SI,Vodice,admin,1631,1631
Prebold,46.2369,15.0919,Slovenia,SI,Prebold,admin,1605,1605
Kokrica,46.2638,14.3560,Slovenia,SI,Kranj,,1595,1595
Zgornja Kungota,46.6388,15.6141,Slovenia,SI,Kungota,admin,1594,1594
Bovec,46.3378,13.5522,Slovenia,SI,Bovec,admin,1586,1586
Radizel,46.4720,15.6537,Slovenia,SI,Hoče-Slivnica,,1582,1582
Zgornje Bitnje,46.2201,14.3374,Slovenia,SI,Kranj,,1555,1555
Rakičan,46.6511,16.1981,Slovenia,SI,Murska Sobota,,1543,1543
Rogatec,46.2243,15.7052,Slovenia,SI,Rogatec,admin,1540,1540
Vuzenica,46.5992,15.1669,Slovenia,SI,Vuzenica,admin,1522,1522
Šmarje-Sap,45.9760,14.6108,Slovenia,SI,Grosuplje,,1512,1512
Miren,45.8962,13.6072,Slovenia,SI,Miren-Kostanjevica,admin,1506,1506
Turnišče,46.6194,16.3223,Slovenia,SI,Turnišče,admin,1506,1506
Mlaka pri Kranju,46.2741,14.3475,Slovenia,SI,Kranj,,1502,1502
Tabor,46.2108,15.0047,Slovenia,SI,Tabor,admin,1494,1494
Mekinje,46.2362,14.6126,Slovenia,SI,Kamnik,,1493,1493
Dol pri Hrastniku,46.1425,15.1170,Slovenia,SI,Hrastnik,,1493,1493
Bakovci,46.6162,16.1457,Slovenia,SI,Murska Sobota,,1493,1493
Dragomer,46.0189,14.3820,Slovenia,SI,Log-Dragomer,admin,1464,1464
Pekre,46.5438,15.5917,Slovenia,SI,Maribor,,1464,1464
Spodnje Škofije,45.5716,13.7917,Slovenia,SI,Koper,,1455,1455
Kranjska Gora,46.4854,13.7871,Slovenia,SI,Kranjska Gora,admin,1452,1452
Šentjernej,45.8389,15.3361,Slovenia,SI,Šentjernej,admin,1441,1441
Cerkno,46.1283,13.9915,Slovenia,SI,Cerkno,admin,1425,1425
Oplotnica,46.3860,15.4458,Slovenia,SI,Oplotnica,admin,1420,1420
Trnovlje pri Celju,46.2524,15.2930,Slovenia,SI,Celje,,1409,1409
Dekani,45.5469,13.8146,Slovenia,SI,Koper,,1409,1409
Šmartno,46.0441,14.8466,Slovenia,SI,Šmartno pri Litiji,admin,1395,1395
Razvanje,46.5133,15.6343,Slovenia,SI,Maribor,,1386,1386
Log,46.0104,14.3569,Slovenia,SI,Log-Dragomer,,1379,1379
Mirna,45.9476,15.0664,Slovenia,SI,Mirna,admin,1371,1371
Šmarca,46.1971,14.5964,Slovenia,SI,Kamnik,,1365,1365
Selnica ob Dravi,46.5514,15.4947,Slovenia,SI,Selnica ob Dravi,admin,1348,1348
Sveti Anton,45.5261,13.8354,Slovenia,SI,Koper,,1343,1343
Deskle,46.0534,13.6135,Slovenia,SI,Kanal ob Soči,,1324,1324
Brestrnica,46.5667,15.5667,Slovenia,SI,Maribor,,1299,1299
Hotinja Vas,46.4675,15.6721,Slovenia,SI,Hoče-Slivnica,,1295,1295
Bilje,45.8965,13.6470,Slovenia,SI,Miren-Kostanjevica,,1271,1271
Dornava,46.4299,15.9488,Slovenia,SI,Dornava,admin,1263,1263
Kidričevo,46.4060,15.7983,Slovenia,SI,Kidričevo,admin,1257,1257
Šmartno pri Slovenj Gradcu,46.4909,15.1077,Slovenia,SI,Slovenj Gradec,,1257,1257
Topolšica,46.4034,15.0183,Slovenia,SI,Šoštanj,,1191,1191
Rogoza,46.5000,15.6841,Slovenia,SI,Hoče-Slivnica,,1187,1187
Horjul,46.0230,14.2981,Slovenia,SI,Horjul,admin,1169,1169
Prvačina,45.8879,13.7231,Slovenia,SI,Nova Gorica,,1169,1169
Zgornje Pirniče,46.1414,14.4294,Slovenia,SI,Medvode,,1163,1163
Črenšovci,46.5747,16.2937,Slovenia,SI,Črenšovci,admin,1151,1151
Izlake,46.1525,14.8940,Slovenia,SI,Zagorje ob Savi,,1146,1146
Kanal,46.0880,13.6347,Slovenia,SI,Kanal ob Soči,admin,1142,1142
Ljubečna,46.2551,15.3231,Slovenia,SI,Celje,,1141,1141
Gorenja Vas,46.1069,14.1451,Slovenia,SI,Gorenja Vas-Poljane,admin,1132,1132
Rožna Dolina,45.9425,13.6397,Slovenia,SI,Šempeter-Vrtojba,,1127,1127
Hrvatini,45.5822,13.7561,Slovenia,SI,Koper,,1126,1126
Zgornja Polskava,46.4258,15.6070,Slovenia,SI,Slovenska Bistrica,,1126,1126
Poljčane,46.3135,15.5791,Slovenia,SI,Poljčane,admin,1118,1118
Pragersko,46.3955,15.6614,Slovenia,SI,Slovenska Bistrica,,1101,1101
Krog,46.6364,16.1364,Slovenia,SI,Murska Sobota,,1096,1096
Ljubno,46.3333,14.8333,Slovenia,SI,Ljubno,admin,1094,1094
Višnja Gora,45.9580,14.7422,Slovenia,SI,Ivančna Gorica,,1090,1090
Kobarid,46.2464,13.5780,Slovenia,SI,Kobarid,admin,1085,1085
Benedikt,46.6065,15.8842,Slovenia,SI,Benedikt,admin,1078,1078
Selnica,46.6859,15.6919,Slovenia,SI,Šentilj,,1077,1077
Šempas,45.9286,13.7433,Slovenia,SI,Nova Gorica,,1066,1066
Hrastje,46.2238,14.3814,Slovenia,SI,Šenčur,,1040,1040
Lipovci,46.6259,16.2286,Slovenia,SI,Beltinci,,1030,1030
Golnik,46.3315,14.3306,Slovenia,SI,Kranj,,1026,1026
Gornji Grad,46.2961,14.8052,Slovenia,SI,Gornji Grad,admin,1016,1016
Mirna Peč,45.8580,15.0876,Slovenia,SI,Mirna Peč,admin,1015,1015
Pobegi,45.5400,13.7941,Slovenia,SI,Koper,,1011,1011
Podgorje,46.2174,14.5913,Slovenia,SI,Kamnik,,1009,1009
Središče ob Dravi,46.3933,16.2722,Slovenia,SI,Središče ob Dravi,admin,984,984
Moravče,46.1356,14.7439,Slovenia,SI,Moravče,admin,957,957
Dobrovnik,46.6515,16.3479,Slovenia,SI,Dobrovnik,admin,948,948
Dobrova,46.0533,14.4144,Slovenia,SI,Dobrova-Polhov Gradec,admin,921,921
Veržej,46.5818,16.1623,Slovenia,SI,Veržej,admin,900,900
Komenda,46.2073,14.5390,Slovenia,SI,Komenda,admin,896,896
Dolenjske Toplice,45.7545,15.0583,Slovenia,SI,Dolenjske Toplice,admin,882,882
Nazarje,46.3202,14.9531,Slovenia,SI,Nazarje,admin,880,880
Velika Polana,46.5719,16.3472,Slovenia,SI,Velika Polana,admin,870,870
Vitanje,46.3825,15.2956,Slovenia,SI,Vitanje,admin,859,859
Gorišnica,46.4122,16.0131,Slovenia,SI,Gorišnica,admin,856,856
Pesnica,46.6099,15.6714,Slovenia,SI,Pesnica,admin,843,843
Sodražica,45.7616,14.6363,Slovenia,SI,Sodražica,admin,842,842
Stari Trg,45.7142,14.4695,Slovenia,SI,Loška Dolina,admin,838,838
Preddvor,46.3052,14.4203,Slovenia,SI,Preddvor,admin,835,835
Zgornja Hajdina,46.4057,15.8385,Slovenia,SI,Hajdina,admin,804,804
Starše,46.4664,15.7675,Slovenia,SI,Starše,admin,757,757
Sveta Trojica v Slovenskih Goricah,46.5756,15.8769,Slovenia,SI,Sveta Trojica v Slovenskih Goricah,admin,754,754
Moravske-Toplice,46.6927,16.2281,Slovenia,SI,Moravske Toplice,admin,752,752
Velike Lašče,45.8363,14.6377,Slovenia,SI,Velike Lašče,admin,724,724
Mokronog,45.9426,15.1490,Slovenia,SI,Mokronog-Trebelno,admin,700,700
Kostanjevica na Krki,45.8463,15.4249,Slovenia,SI,Kostanjevica na Krki,admin,689,689
Komen,45.8159,13.7507,Slovenia,SI,Komen,admin,642,642
Šmartno,46.3297,15.0325,Slovenia,SI,Šmartno ob Paki,admin,636,636
Kozje,46.0740,15.5590,Slovenia,SI,Kozje,admin,634,634
Puconci,46.7039,16.1572,Slovenia,SI,Puconci,admin,633,633
Grad,46.7977,16.0984,Slovenia,SI,Grad,admin,620,620
Majšperk,46.3500,15.7333,Slovenia,SI,Majšperk,admin,606,606
Videm,45.8484,14.6944,Slovenia,SI,Dobrepolje,admin,590,590
Podčetrtek,46.1573,15.5974,Slovenia,SI,Podčetrtek,admin,578,578
Zgornje Jezersko,46.3951,14.4966,Slovenia,SI,Jezersko,admin,558,558
Apače,46.6967,15.9111,Slovenia,SI,Apače,admin,543,543
Kobilje,46.6837,16.3953,Slovenia,SI,Kobilje,admin,542,542
Dobrna,46.3381,15.2293,Slovenia,SI,Dobrna,admin,536,536
Zgornje Gorje,46.3801,14.0684,Slovenia,SI,Gorje,admin,532,532
Rečica,46.3247,14.9228,Slovenia,SI,Rečica ob Savinji,admin,516,516
Križevci,46.5631,16.1399,Slovenia,SI,Križevci,admin,499,499
Markovci,46.3956,15.9314,Slovenia,SI,Markovci,admin,495,495
Šmarješke Toplice,45.8622,15.2214,Slovenia,SI,Šmarješke Toplice,admin,492,492
Videm pri Ptuju,46.3699,15.8935,Slovenia,SI,Videm,admin,451,451
Cirkulane,46.3436,15.9941,Slovenia,SI,Cirkulane,admin,451,451
Lukovica,46.1686,14.6892,Slovenia,SI,Lukovica,admin,438,438
Kuzma,46.8333,16.0833,Slovenia,SI,Kuzma,admin,429,429
Cankova,46.7193,16.0179,Slovenia,SI,Cankova,admin,416,416
Gornji Petrovci,46.8050,16.2172,Slovenia,SI,Gornji Petrovci,admin,411,411
Tišina,46.6558,16.0933,Slovenia,SI,Tišina,admin,408,408
Ribnica,46.5372,15.2733,Slovenia,SI,Ribnica na Pohorju,admin,404,404
Luče,46.3565,14.7436,Slovenia,SI,Luče,admin,402,402
Šalovci,46.8250,16.2981,Slovenia,SI,Šalovci,admin,392,392
Juršinci,46.4853,15.9710,Slovenia,SI,Juršinci,admin,381,381
Podlehnik,46.3361,15.8786,Slovenia,SI,Podlehnik,admin,378,378
Braslovče,46.2884,15.0386,Slovenia,SI,Braslovče,admin,378,378
Trnovska Vas,46.5231,15.8978,Slovenia,SI,Trnovska Vas,admin,369,369
Jurovski Dol,46.6087,15.7796,Slovenia,SI,Sveti Jurij v Slovenskih Goricah,admin,361,361
Hrib-Loški Potok,45.7015,14.5901,Slovenia,SI,Loški Potok,admin,353,353
Vitomarci,46.5248,15.9346,Slovenia,SI,Sveti Andraž v Slovenskih Goricah,admin,341,341
Dobrovo,45.9989,13.5296,Slovenia,SI,Brda,admin,334,334
Šentrupert,45.9769,15.0897,Slovenia,SI,Šentrupert,admin,310,310
Podvelka,46.5864,15.3286,Slovenia,SI,Podvelka,admin,299,299
Nova Vas,45.7726,14.5064,Slovenia,SI,Bloke,admin,293,293
Hodoš,46.8285,16.3239,Slovenia,SI,Hodoš,admin,280,280
Dol,46.0884,14.6425,Slovenia,SI,Dol pri Ljubljani,admin,277,277
Tomaž pri Ormožu,46.4833,16.0794,Slovenia,SI,Sveti Tomaž,admin,254,254
Bistrica ob Sotli,46.0589,15.6642,Slovenia,SI,Bistrica ob Sotli,admin,235,235
Škocjan,45.9069,15.2914,Slovenia,SI,Škocjan,admin,233,233
Makole,46.3174,15.6669,Slovenia,SI,Makole,admin,221,221
Sveti Jurij,46.5683,16.0203,Slovenia,SI,Sveti Jurij ob Ščavnici,admin,209,209
Solčava,46.4201,14.6918,Slovenia,SI,Solčava,admin,208,208
Destrnik,46.4923,15.8801,Slovenia,SI,Destrnik,admin,186,186
Cerkvenjak,46.5660,15.9429,Slovenia,SI,Cerkvenjak,admin,163,163
Sveta Ana,46.6497,15.8453,Slovenia,SI,Sveta Ana,admin,159,159
Razkrižje,46.5182,16.2882,Slovenia,SI,Razkrižje,admin,141,141
Dobje,46.1369,15.3945,Slovenia,SI,Dobje,admin,114,114
Osilnica,45.5289,14.6983,Slovenia,SI,Osilnica,admin,76,76
Vransko,46.1720,14.8217,Slovenia,SI,Vransko,admin,11,11
Kostel,45.5088,14.9100,Slovenia,SI,Kostel,admin,10,10
Šentilj,46.6817,15.6481,Slovenia,SI,Šentilj,admin,,
Žužemberk,45.8339,14.9292,Slovenia,SI,Žužemberk,admin,,
Zavrč,46.3917,16.0497,Slovenia,SI,Zavrč,admin,,
Žetale,46.2750,15.7939,Slovenia,SI,Žetale,admin,,
